<?xml version="1.0" encoding="UTF-8"?>
<kml xmlns="http://earth.google.com/kml/2.2">
<Document>
	<!-- 容器样式 -->
	<Style id="st:top">
		<ListStyle>
			<listItemType>check</listItemType>
			<bgColor>00ffffff</bgColor>
			<maxSnippetLines>2</maxSnippetLines>
		</ListStyle>
	</Style>
	<Style id="st:folder">
		<ListStyle>
			<listItemType>checkHideChildren</listItemType>
			<bgColor>00ffffff</bgColor>
			<maxSnippetLines>2</maxSnippetLines>
		</ListStyle>
	</Style>
	<!-- 地标点样式 -->
	<Style id="st:capcity">
		<IconStyle>
			<color>ff7fffff</color>
			<Icon>
			<href>http://maps.google.com/mapfiles/kml/pal4/icon25.png</href>
		</Icon>
		</IconStyle>
			<LabelStyle>
			<color>ff00ffff</color>
			<scale>1.2</scale>
		</LabelStyle>
	</Style>
	<Style id="st:city">
		<IconStyle>
			<scale>0.8</scale>
			<Icon>
				<href>http://maps.google.com/mapfiles/kml/pal4/icon26.png</href>
			</Icon>
		</IconStyle>
		<LabelStyle>
			<scale>1.1</scale>
		</LabelStyle>
	</Style>
	<Style id="st:countycity">
		<IconStyle>
			<scale>0.75</scale>
			<Icon>
				<href>http://maps.google.com/mapfiles/kml/pal4/icon25.png</href>
			</Icon>
		</IconStyle>
	</Style>
	<Style id="st:county">
		<IconStyle>
			<scale>0.75</scale>
			<Icon>
				<href>http://maps.google.com/mapfiles/kml/pal4/icon25.png</href>
			</Icon>
		</IconStyle>
		<LabelStyle>
			<color>ffffb59c</color>
		</LabelStyle>
	</Style>
	<Style id="st:town">
		<IconStyle>
			<scale>0.7</scale>
			<Icon>
				<href>http://maps.google.com/mapfiles/kml/pal2/icon10.png</href>
			</Icon>
		</IconStyle>
		<LabelStyle>
			<color>ffffff00</color>
			<scale>0.9</scale>
		</LabelStyle>
	</Style>
	<Style id="st:vi">
		<IconStyle>
			<scale>0.6</scale>
			<Icon>
				<href>http://maps.google.com/mapfiles/kml/pal4/icon24.png</href>
			</Icon>
		</IconStyle>
		<LabelStyle>
			<color>ffffff00</color>
			<scale>0.8</scale>
		</LabelStyle>
	</Style>
	<Style id="st:ot">
		<IconStyle>
			<scale>0.6</scale>
			<Icon>
				<href>http://maps.google.com/mapfiles/kml/shapes/open-diamond.png</href>
			</Icon>
		</IconStyle>
		<LabelStyle>
			<color>ff7fffff</color>
			<scale>0.8</scale>
		</LabelStyle>
	</Style>

	<description><![CDATA[<b>“省地县乡村”五级行政区划地标</b>
	<hr />
	<p>制作: <a href="mailto:laughcry2002@163.com">laughcry</a><p>
	<p>版本: 2008-01-13</p>	
	<p>数据来源: <br />
	<ol>
		<li>行政区划数据来自<a href="http://www.agri.com.cn/">金农网</a>并参考其它数据进行了修正。</li>
		<li>坐标数据综合了“卧美吻花”、“大悟大”等网友的数据以及朋友的地图软件中导出的数据。</li>
	</ol>]]></description>
	<styleUrl>#st:top</styleUrl>
<Folder>
<styleUrl>#st:folder</styleUrl>
<Placemark>
<name>合肥市</name>
<Region>
<LatLonAltBox>
<north>32.33139</north><south>31.33139</south><east>117.74403</east><west>116.74403</west></LatLonAltBox>
<Lod><minLodPixels>16</minLodPixels></Lod>
</Region>
<styleUrl>#st:capcity</styleUrl>
<Point><coordinates>117.24403,31.83139</coordinates></Point>
</Placemark>
</Folder>
<Folder>
<styleUrl>#st:folder</styleUrl>
<Placemark>
<name>安庆市</name>
<Region>
<LatLonAltBox>
<north>31.02719</north><south>30.02719</south><east>117.55178</east><west>116.55178</west></LatLonAltBox>
<Lod><minLodPixels>64</minLodPixels></Lod>
</Region>
<styleUrl>#st:city</styleUrl>
<Point><coordinates>117.05178,30.52719</coordinates></Point>
</Placemark>
<Placemark>
<name>池州市</name>
<Region>
<LatLonAltBox>
<north>31.16207</north><south>30.16207</south><east>117.98539</east><west>116.98539</west></LatLonAltBox>
<Lod><minLodPixels>64</minLodPixels></Lod>
</Region>
<styleUrl>#st:city</styleUrl>
<Point><coordinates>117.48539,30.66207</coordinates></Point>
</Placemark>
<Placemark>
<name>六安市</name>
<Region>
<LatLonAltBox>
<north>32.26027</north><south>31.26027</south><east>116.99944</east><west>115.99944</west></LatLonAltBox>
<Lod><minLodPixels>64</minLodPixels></Lod>
</Region>
<styleUrl>#st:city</styleUrl>
<Point><coordinates>116.49944,31.76027</coordinates></Point>
</Placemark>
<Placemark>
<name>阜阳市</name>
<Region>
<LatLonAltBox>
<north>33.39173</north><south>32.39173</south><east>116.30873</east><west>115.30873</west></LatLonAltBox>
<Lod><minLodPixels>64</minLodPixels></Lod>
</Region>
<styleUrl>#st:city</styleUrl>
<Point><coordinates>115.80873,32.89173</coordinates></Point>
</Placemark>
<Placemark>
<name>亳州市</name>
<Region>
<LatLonAltBox>
<north>34.35381</north><south>33.35381</south><east>116.27513</east><west>115.27513</west></LatLonAltBox>
<Lod><minLodPixels>64</minLodPixels></Lod>
</Region>
<styleUrl>#st:city</styleUrl>
<Point><coordinates>115.77513,33.85381</coordinates></Point>
</Placemark>
<Placemark>
<name>宿州市</name>
<Region>
<LatLonAltBox>
<north>34.13271</north><south>33.13271</south><east>117.48045</east><west>116.48045</west></LatLonAltBox>
<Lod><minLodPixels>64</minLodPixels></Lod>
</Region>
<styleUrl>#st:city</styleUrl>
<Point><coordinates>116.98045,33.63271</coordinates></Point>
</Placemark>
<Placemark>
<name>淮北市</name>
<Region>
<LatLonAltBox>
<north>34.44499</north><south>33.44499</south><east>117.30409</east><west>116.30409</west></LatLonAltBox>
<Lod><minLodPixels>64</minLodPixels></Lod>
</Region>
<styleUrl>#st:city</styleUrl>
<Point><coordinates>116.80409,33.94499</coordinates></Point>
</Placemark>
<Placemark>
<name>淮南市</name>
<Region>
<LatLonAltBox>
<north>33.12686</north><south>32.12686</south><east>117.49753</east><west>116.49753</west></LatLonAltBox>
<Lod><minLodPixels>64</minLodPixels></Lod>
</Region>
<styleUrl>#st:city</styleUrl>
<Point><coordinates>116.99753,32.62686</coordinates></Point>
</Placemark>
<Placemark>
<name>蚌埠市</name>
<Region>
<LatLonAltBox>
<north>33.41727</north><south>32.41727</south><east>117.88274</east><west>116.88274</west></LatLonAltBox>
<Lod><minLodPixels>64</minLodPixels></Lod>
</Region>
<styleUrl>#st:city</styleUrl>
<Point><coordinates>117.38274,32.91727</coordinates></Point>
</Placemark>
<Placemark>
<name>滁州市</name>
<Region>
<LatLonAltBox>
<north>32.80289</north><south>31.80289</south><east>118.81954</east><west>117.81954</west></LatLonAltBox>
<Lod><minLodPixels>64</minLodPixels></Lod>
</Region>
<styleUrl>#st:city</styleUrl>
<Point><coordinates>118.31954,32.30289</coordinates></Point>
</Placemark>
<Placemark>
<name>马鞍山市</name>
<Region>
<LatLonAltBox>
<north>32.19933</north><south>31.19933</south><east>118.99952</east><west>117.99952</west></LatLonAltBox>
<Lod><minLodPixels>64</minLodPixels></Lod>
</Region>
<styleUrl>#st:city</styleUrl>
<Point><coordinates>118.49952,31.69933</coordinates></Point>
</Placemark>
<Placemark>
<name>巢湖市</name>
<Region>
<LatLonAltBox>
<north>32.09986</north><south>31.09986</south><east>118.35948</east><west>117.35948</west></LatLonAltBox>
<Lod><minLodPixels>64</minLodPixels></Lod>
</Region>
<styleUrl>#st:city</styleUrl>
<Point><coordinates>117.85948,31.59986</coordinates></Point>
</Placemark>
<Placemark>
<name>芜湖市</name>
<Region>
<LatLonAltBox>
<north>31.84108</north><south>30.84108</south><east>118.87992</east><west>117.87992</west></LatLonAltBox>
<Lod><minLodPixels>64</minLodPixels></Lod>
</Region>
<styleUrl>#st:city</styleUrl>
<Point><coordinates>118.37992,31.34108</coordinates></Point>
</Placemark>
<Placemark>
<name>铜陵市</name>
<Region>
<LatLonAltBox>
<north>31.42965</north><south>30.42965</south><east>118.31198</east><west>117.31198</west></LatLonAltBox>
<Lod><minLodPixels>64</minLodPixels></Lod>
</Region>
<styleUrl>#st:city</styleUrl>
<Point><coordinates>117.81198,30.92965</coordinates></Point>
</Placemark>
<Placemark>
<name>宣城市</name>
<Region>
<LatLonAltBox>
<north>31.44299</north><south>30.44299</south><east>119.25354</east><west>118.25354</west></LatLonAltBox>
<Lod><minLodPixels>64</minLodPixels></Lod>
</Region>
<styleUrl>#st:city</styleUrl>
<Point><coordinates>118.75354,30.94299</coordinates></Point>
</Placemark>
<Placemark>
<name>黄山市</name>
<Region>
<LatLonAltBox>
<north>30.21785</north><south>29.21785</south><east>118.8337</east><west>117.8337</west></LatLonAltBox>
<Lod><minLodPixels>64</minLodPixels></Lod>
</Region>
<styleUrl>#st:city</styleUrl>
<Point><coordinates>118.3337,29.71785</coordinates></Point>
</Placemark>
</Folder>
<Folder>
<styleUrl>#st:folder</styleUrl>
<Placemark>
<name>埇桥区</name>
<Region>
<LatLonAltBox>
<north>34.13695</north><south>33.13695</south><east>117.46805</east><west>116.46805</west></LatLonAltBox>
<Lod><minLodPixels>256</minLodPixels></Lod>
</Region>
<styleUrl>#st:countycity</styleUrl>
<Point><coordinates>116.96805,33.63695</coordinates></Point>
</Placemark>
<Placemark>
<name>烈山区</name>
<Region>
<LatLonAltBox>
<north>34.39309</north><south>33.39309</south><east>117.30446</east><west>116.30446</west></LatLonAltBox>
<Lod><minLodPixels>256</minLodPixels></Lod>
</Region>
<styleUrl>#st:countycity</styleUrl>
<Point><coordinates>116.80446,33.89309</coordinates></Point>
</Placemark>
<Placemark>
<name>相山区</name>
<Region>
<LatLonAltBox>
<north>34.45308</north><south>33.45308</south><east>117.29298</east><west>116.29298</west></LatLonAltBox>
<Lod><minLodPixels>256</minLodPixels></Lod>
</Region>
<styleUrl>#st:countycity</styleUrl>
<Point><coordinates>116.79298,33.95308</coordinates></Point>
</Placemark>
<Placemark>
<name>杜集区</name>
<Region>
<LatLonAltBox>
<north>34.49721</north><south>33.49721</south><east>117.31749</east><west>116.31749</west></LatLonAltBox>
<Lod><minLodPixels>256</minLodPixels></Lod>
</Region>
<styleUrl>#st:countycity</styleUrl>
<Point><coordinates>116.81749,33.99721</coordinates></Point>
</Placemark>
<Placemark>
<name>颍东区</name>
<Region>
<LatLonAltBox>
<north>33.41278</north><south>32.41278</south><east>116.35213</east><west>115.35213</west></LatLonAltBox>
<Lod><minLodPixels>256</minLodPixels></Lod>
</Region>
<styleUrl>#st:countycity</styleUrl>
<Point><coordinates>115.85213,32.91278</coordinates></Point>
</Placemark>
<Placemark>
<name>颍州区</name>
<Region>
<LatLonAltBox>
<north>33.38188</north><south>32.38188</south><east>116.29917</east><west>115.29917</west></LatLonAltBox>
<Lod><minLodPixels>256</minLodPixels></Lod>
</Region>
<styleUrl>#st:countycity</styleUrl>
<Point><coordinates>115.79917,32.88188</coordinates></Point>
</Placemark>
<Placemark>
<name>颍泉区</name>
<Region>
<LatLonAltBox>
<north>33.42891</north><south>32.42891</south><east>116.2983</east><west>115.2983</west></LatLonAltBox>
<Lod><minLodPixels>256</minLodPixels></Lod>
</Region>
<styleUrl>#st:countycity</styleUrl>
<Point><coordinates>115.7983,32.92891</coordinates></Point>
</Placemark>
<Placemark>
<name>谯城区</name>
<Region>
<LatLonAltBox>
<north>34.37638</north><south>33.37638</south><east>116.27063</east><west>115.27063</west></LatLonAltBox>
<Lod><minLodPixels>256</minLodPixels></Lod>
</Region>
<styleUrl>#st:countycity</styleUrl>
<Point><coordinates>115.77063,33.87638</coordinates></Point>
</Placemark>
<Placemark>
<name>禹会区</name>
<Region>
<LatLonAltBox>
<north>33.43365</north><south>32.43365</south><east>117.84133</east><west>116.84133</west></LatLonAltBox>
<Lod><minLodPixels>256</minLodPixels></Lod>
</Region>
<styleUrl>#st:countycity</styleUrl>
<Point><coordinates>117.34133,32.93365</coordinates></Point>
</Placemark>
<Placemark>
<name>龙子湖区</name>
<Region>
<LatLonAltBox>
<north>33.44658</north><south>32.44658</south><east>117.88731</east><west>116.88731</west></LatLonAltBox>
<Lod><minLodPixels>256</minLodPixels></Lod>
</Region>
<styleUrl>#st:countycity</styleUrl>
<Point><coordinates>117.38731,32.94658</coordinates></Point>
</Placemark>
<Placemark>
<name>蚌山区</name>
<Region>
<LatLonAltBox>
<north>33.44477</north><south>32.44477</south><east>117.85556</east><west>116.85556</west></LatLonAltBox>
<Lod><minLodPixels>256</minLodPixels></Lod>
</Region>
<styleUrl>#st:countycity</styleUrl>
<Point><coordinates>117.35556,32.94477</coordinates></Point>
</Placemark>
<Placemark>
<name>淮上区</name>
<Region>
<LatLonAltBox>
<north>33.46426</north><south>32.46426</south><east>117.85318</east><west>116.85318</west></LatLonAltBox>
<Lod><minLodPixels>256</minLodPixels></Lod>
</Region>
<styleUrl>#st:countycity</styleUrl>
<Point><coordinates>117.35318,32.96426</coordinates></Point>
</Placemark>
<Placemark>
<name>大通区</name>
<Region>
<LatLonAltBox>
<north>33.13069</north><south>32.13069</south><east>117.54813</east><west>116.54813</west></LatLonAltBox>
<Lod><minLodPixels>256</minLodPixels></Lod>
</Region>
<styleUrl>#st:countycity</styleUrl>
<Point><coordinates>117.04813,32.63069</coordinates></Point>
</Placemark>
<Placemark>
<name>田家庵区</name>
<Region>
<LatLonAltBox>
<north>33.15994</north><south>32.15994</south><east>117.50636</east><west>116.50636</west></LatLonAltBox>
<Lod><minLodPixels>256</minLodPixels></Lod>
</Region>
<styleUrl>#st:countycity</styleUrl>
<Point><coordinates>117.00636,32.65994</coordinates></Point>
</Placemark>
<Placemark>
<name>谢家集区</name>
<Region>
<LatLonAltBox>
<north>33.09494</north><south>32.09494</south><east>117.3573</east><west>116.3573</west></LatLonAltBox>
<Lod><minLodPixels>256</minLodPixels></Lod>
</Region>
<styleUrl>#st:countycity</styleUrl>
<Point><coordinates>116.8573,32.59494</coordinates></Point>
</Placemark>
<Placemark>
<name>八公山区</name>
<Region>
<LatLonAltBox>
<north>33.13134</north><south>32.13134</south><east>117.33455</east><west>116.33455</west></LatLonAltBox>
<Lod><minLodPixels>256</minLodPixels></Lod>
</Region>
<styleUrl>#st:countycity</styleUrl>
<Point><coordinates>116.83455,32.63134</coordinates></Point>
</Placemark>
<Placemark>
<name>潘集区</name>
<Region>
<LatLonAltBox>
<north>33.28209</north><south>32.28209</south><east>117.31406</east><west>116.31406</west></LatLonAltBox>
<Lod><minLodPixels>256</minLodPixels></Lod>
</Region>
<styleUrl>#st:countycity</styleUrl>
<Point><coordinates>116.81406,32.78209</coordinates></Point>
</Placemark>
<Placemark>
<name>南谯区</name>
<Region>
<LatLonAltBox>
<north>32.81871</north><south>31.81871</south><east>118.80397</east><west>117.80397</west></LatLonAltBox>
<Lod><minLodPixels>256</minLodPixels></Lod>
</Region>
<styleUrl>#st:countycity</styleUrl>
<Point><coordinates>118.30397,32.31871</coordinates></Point>
</Placemark>
<Placemark>
<name>琅琊区</name>
<Region>
<LatLonAltBox>
<north>32.79716</north><south>31.79716</south><east>118.80271</east><west>117.80271</west></LatLonAltBox>
<Lod><minLodPixels>256</minLodPixels></Lod>
</Region>
<styleUrl>#st:countycity</styleUrl>
<Point><coordinates>118.30271,32.29716</coordinates></Point>
</Placemark>
<Placemark>
<name>居巢区</name>
<Region>
<LatLonAltBox>
<north>32.10218</north><south>31.10218</south><east>118.35574</east><west>117.35574</west></LatLonAltBox>
<Lod><minLodPixels>256</minLodPixels></Lod>
</Region>
<styleUrl>#st:countycity</styleUrl>
<Point><coordinates>117.85574,31.60218</coordinates></Point>
</Placemark>
<Placemark>
<name>庐阳区</name>
<Region>
<LatLonAltBox>
<north>32.37527</north><south>31.37527</south><east>117.75803</east><west>116.75803</west></LatLonAltBox>
<Lod><minLodPixels>256</minLodPixels></Lod>
</Region>
<styleUrl>#st:countycity</styleUrl>
<Point><coordinates>117.25803,31.87527</coordinates></Point>
</Placemark>
<Placemark>
<name>瑶海区</name>
<Region>
<LatLonAltBox>
<north>32.36482</north><south>31.36482</south><east>117.79966</east><west>116.79966</west></LatLonAltBox>
<Lod><minLodPixels>256</minLodPixels></Lod>
</Region>
<styleUrl>#st:countycity</styleUrl>
<Point><coordinates>117.29966,31.86482</coordinates></Point>
</Placemark>
<Placemark>
<name>蜀山区</name>
<Region>
<LatLonAltBox>
<north>32.35268</north><south>31.35268</south><east>117.7585</east><west>116.7585</west></LatLonAltBox>
<Lod><minLodPixels>256</minLodPixels></Lod>
</Region>
<styleUrl>#st:countycity</styleUrl>
<Point><coordinates>117.2585,31.85268</coordinates></Point>
</Placemark>
<Placemark>
<name>包河区</name>
<Region>
<LatLonAltBox>
<north>32.29749</north><south>31.29749</south><east>117.79821</east><west>116.79821</west></LatLonAltBox>
<Lod><minLodPixels>256</minLodPixels></Lod>
</Region>
<styleUrl>#st:countycity</styleUrl>
<Point><coordinates>117.29821,31.79749</coordinates></Point>
</Placemark>
<Placemark>
<name>裕安区</name>
<Region>
<LatLonAltBox>
<north>32.26109</north><south>31.26109</south><east>116.99133</east><west>115.99133</west></LatLonAltBox>
<Lod><minLodPixels>256</minLodPixels></Lod>
</Region>
<styleUrl>#st:countycity</styleUrl>
<Point><coordinates>116.49133,31.76109</coordinates></Point>
</Placemark>
<Placemark>
<name>金安区</name>
<Region>
<LatLonAltBox>
<north>32.25955</north><south>31.25955</south><east>117.00776</east><west>116.00776</west></LatLonAltBox>
<Lod><minLodPixels>256</minLodPixels></Lod>
</Region>
<styleUrl>#st:countycity</styleUrl>
<Point><coordinates>116.50776,31.75955</coordinates></Point>
</Placemark>
<Placemark>
<name>宿松县</name>
<Region>
<LatLonAltBox>
<north>30.65587</north><south>29.65587</south><east>116.61705</east><west>115.61705</west></LatLonAltBox>
<Lod><minLodPixels>256</minLodPixels></Lod>
</Region>
<styleUrl>#st:countycity</styleUrl>
<Point><coordinates>116.11705,30.15587</coordinates></Point>
</Placemark>
<Placemark>
<name>宜秀区</name>
<Region>
<LatLonAltBox>
<north>31.09972</north><south>30.09972</south><east>117.50123</east><west>116.50123</west></LatLonAltBox>
<Lod><minLodPixels>256</minLodPixels></Lod>
</Region>
<styleUrl>#st:countycity</styleUrl>
<Point><coordinates>117.00123,30.59972</coordinates></Point>
</Placemark>
<Placemark>
<name>迎江区</name>
<Region>
<LatLonAltBox>
<north>31.00427</north><south>30.00427</south><east>117.54399</east><west>116.54399</west></LatLonAltBox>
<Lod><minLodPixels>256</minLodPixels></Lod>
</Region>
<styleUrl>#st:countycity</styleUrl>
<Point><coordinates>117.04399,30.50427</coordinates></Point>
</Placemark>
<Placemark>
<name>大观区</name>
<Region>
<LatLonAltBox>
<north>31.01897</north><south>30.01897</south><east>117.53085</east><west>116.53085</west></LatLonAltBox>
<Lod><minLodPixels>256</minLodPixels></Lod>
</Region>
<styleUrl>#st:countycity</styleUrl>
<Point><coordinates>117.03085,30.51897</coordinates></Point>
</Placemark>
<Placemark>
<name>贵池区</name>
<Region>
<LatLonAltBox>
<north>31.14754</north><south>30.14754</south><east>117.97638</east><west>116.97638</west></LatLonAltBox>
<Lod><minLodPixels>256</minLodPixels></Lod>
</Region>
<styleUrl>#st:countycity</styleUrl>
<Point><coordinates>117.47638,30.64754</coordinates></Point>
</Placemark>
<Placemark>
<name>郊区</name>
<Region>
<LatLonAltBox>
<north>31.41997</north><south>30.41997</south><east>118.27977</east><west>117.27977</west></LatLonAltBox>
<Lod><minLodPixels>256</minLodPixels></Lod>
</Region>
<styleUrl>#st:countycity</styleUrl>
<Point><coordinates>117.77977,30.91997</coordinates></Point>
</Placemark>
<Placemark>
<name>狮子山区</name>
<Region>
<LatLonAltBox>
<north>31.45212</north><south>30.45212</south><east>118.34782</east><west>117.34782</west></LatLonAltBox>
<Lod><minLodPixels>256</minLodPixels></Lod>
</Region>
<styleUrl>#st:countycity</styleUrl>
<Point><coordinates>117.84782,30.95212</coordinates></Point>
</Placemark>
<Placemark>
<name>铜官山区</name>
<Region>
<LatLonAltBox>
<north>31.42636</north><south>30.42636</south><east>118.31933</east><west>117.31933</west></LatLonAltBox>
<Lod><minLodPixels>256</minLodPixels></Lod>
</Region>
<styleUrl>#st:countycity</styleUrl>
<Point><coordinates>117.81933,30.92636</coordinates></Point>
</Placemark>
<Placemark>
<name>雨山区</name>
<Region>
<LatLonAltBox>
<north>32.1785</north><south>31.1785</south><east>118.98631</east><west>117.98631</west></LatLonAltBox>
<Lod><minLodPixels>256</minLodPixels></Lod>
</Region>
<styleUrl>#st:countycity</styleUrl>
<Point><coordinates>118.48631,31.6785</coordinates></Point>
</Placemark>
<Placemark>
<name>花山区</name>
<Region>
<LatLonAltBox>
<north>32.20921</north><south>31.20921</south><east>119.00124</east><west>118.00124</west></LatLonAltBox>
<Lod><minLodPixels>256</minLodPixels></Lod>
</Region>
<styleUrl>#st:countycity</styleUrl>
<Point><coordinates>118.50124,31.70921</coordinates></Point>
</Placemark>
<Placemark>
<name>金家庄区</name>
<Region>
<LatLonAltBox>
<north>32.22699</north><south>31.22699</south><east>118.98339</east><west>117.98339</west></LatLonAltBox>
<Lod><minLodPixels>256</minLodPixels></Lod>
</Region>
<styleUrl>#st:countycity</styleUrl>
<Point><coordinates>118.48339,31.72699</coordinates></Point>
</Placemark>
<Placemark>
<name>戈江区</name>
<Region>
<LatLonAltBox>
<north>31.8219</north><south>30.8219</south><east>118.86467</east><west>117.86467</west></LatLonAltBox>
<Lod><minLodPixels>256</minLodPixels></Lod>
</Region>
<styleUrl>#st:countycity</styleUrl>
<Point><coordinates>118.36467,31.3219</coordinates></Point>
</Placemark>
<Placemark>
<name>镜湖区</name>
<Region>
<LatLonAltBox>
<north>31.84841</north><south>30.84841</south><east>118.86989</east><west>117.86989</west></LatLonAltBox>
<Lod><minLodPixels>256</minLodPixels></Lod>
</Region>
<styleUrl>#st:countycity</styleUrl>
<Point><coordinates>118.36989,31.34841</coordinates></Point>
</Placemark>
<Placemark>
<name>鸠江区</name>
<Region>
<LatLonAltBox>
<north>31.87448</north><south>30.87448</south><east>118.88505</east><west>117.88505</west></LatLonAltBox>
<Lod><minLodPixels>256</minLodPixels></Lod>
</Region>
<styleUrl>#st:countycity</styleUrl>
<Point><coordinates>118.38505,31.37448</coordinates></Point>
</Placemark>
<Placemark>
<name>三山区</name>
<Region>
<LatLonAltBox>
<north>31.72902</north><south>30.72902</south><east>118.73668</east><west>117.73668</west></LatLonAltBox>
<Lod><minLodPixels>256</minLodPixels></Lod>
</Region>
<styleUrl>#st:countycity</styleUrl>
<Point><coordinates>118.23668,31.22902</coordinates></Point>
</Placemark>
<Placemark>
<name>宣州区</name>
<Region>
<LatLonAltBox>
<north>31.44297</north><south>30.44297</south><east>119.25331</east><west>118.25331</west></LatLonAltBox>
<Lod><minLodPixels>256</minLodPixels></Lod>
</Region>
<styleUrl>#st:countycity</styleUrl>
<Point><coordinates>118.75331,30.94297</coordinates></Point>
</Placemark>
<Placemark>
<name>黄山区</name>
<Region>
<LatLonAltBox>
<north>30.7966</north><south>29.7966</south><east>118.62938</east><west>117.62938</west></LatLonAltBox>
<Lod><minLodPixels>256</minLodPixels></Lod>
</Region>
<styleUrl>#st:countycity</styleUrl>
<Point><coordinates>118.12938,30.2966</coordinates></Point>
</Placemark>
<Placemark>
<name>徽州区</name>
<Region>
<LatLonAltBox>
<north>30.32305</north><south>29.32305</south><east>118.83596</east><west>117.83596</west></LatLonAltBox>
<Lod><minLodPixels>256</minLodPixels></Lod>
</Region>
<styleUrl>#st:countycity</styleUrl>
<Point><coordinates>118.33596,29.82305</coordinates></Point>
</Placemark>
<Placemark>
<name>屯溪区</name>
<Region>
<LatLonAltBox>
<north>30.21789</north><south>29.21789</south><east>118.83354</east><west>117.83354</west></LatLonAltBox>
<Lod><minLodPixels>256</minLodPixels></Lod>
</Region>
<styleUrl>#st:countycity</styleUrl>
<Point><coordinates>118.33354,29.71789</coordinates></Point>
</Placemark>
<Placemark>
<name>桐城市</name>
<Region>
<LatLonAltBox>
<north>31.55453</north><south>30.55453</south><east>117.44569</east><west>116.44569</west></LatLonAltBox>
<Lod><minLodPixels>256</minLodPixels></Lod>
</Region>
<styleUrl>#st:countycity</styleUrl>
<Point><coordinates>116.94569,31.05453</coordinates></Point>
</Placemark>
<Placemark>
<name>明光市</name>
<Region>
<LatLonAltBox>
<north>33.28028</north><south>32.28028</south><east>118.48561</east><west>117.48561</west></LatLonAltBox>
<Lod><minLodPixels>256</minLodPixels></Lod>
</Region>
<styleUrl>#st:countycity</styleUrl>
<Point><coordinates>117.98561,32.78028</coordinates></Point>
</Placemark>
<Placemark>
<name>天长市</name>
<Region>
<LatLonAltBox>
<north>33.19329</north><south>32.19329</south><east>119.49353</east><west>118.49353</west></LatLonAltBox>
<Lod><minLodPixels>256</minLodPixels></Lod>
</Region>
<styleUrl>#st:countycity</styleUrl>
<Point><coordinates>118.99353,32.69329</coordinates></Point>
</Placemark>
<Placemark>
<name>宁国市</name>
<Region>
<LatLonAltBox>
<north>31.12628</north><south>30.12628</south><east>119.47855</east><west>118.47855</west></LatLonAltBox>
<Lod><minLodPixels>256</minLodPixels></Lod>
</Region>
<styleUrl>#st:countycity</styleUrl>
<Point><coordinates>118.97855,30.62628</coordinates></Point>
</Placemark>
<Placemark>
<name>太湖县</name>
<Region>
<LatLonAltBox>
<north>30.9287</north><south>29.9287</south><east>116.77033</east><west>115.77033</west></LatLonAltBox>
<Lod><minLodPixels>512</minLodPixels></Lod>
</Region>
<styleUrl>#st:county</styleUrl>
<Point><coordinates>116.27033,30.4287</coordinates></Point>
</Placemark>
<Placemark>
<name>东至县</name>
<Region>
<LatLonAltBox>
<north>30.59941</north><south>29.59941</south><east>117.52204</east><west>116.52204</west></LatLonAltBox>
<Lod><minLodPixels>512</minLodPixels></Lod>
</Region>
<styleUrl>#st:county</styleUrl>
<Point><coordinates>117.02204,30.09941</coordinates></Point>
</Placemark>
<Placemark>
<name>石台县</name>
<Region>
<LatLonAltBox>
<north>30.71296</north><south>29.71296</south><east>117.98132</east><west>116.98132</west></LatLonAltBox>
<Lod><minLodPixels>512</minLodPixels></Lod>
</Region>
<styleUrl>#st:county</styleUrl>
<Point><coordinates>117.48132,30.21296</coordinates></Point>
</Placemark>
<Placemark>
<name>枞阳县</name>
<Region>
<LatLonAltBox>
<north>31.19692</north><south>30.19692</south><east>117.70361</east><west>116.70361</west></LatLonAltBox>
<Lod><minLodPixels>512</minLodPixels></Lod>
</Region>
<styleUrl>#st:county</styleUrl>
<Point><coordinates>117.20361,30.69692</coordinates></Point>
</Placemark>
<Placemark>
<name>怀宁县</name>
<Region>
<LatLonAltBox>
<north>31.22099</north><south>30.22099</south><east>117.32617</east><west>116.32617</west></LatLonAltBox>
<Lod><minLodPixels>512</minLodPixels></Lod>
</Region>
<styleUrl>#st:county</styleUrl>
<Point><coordinates>116.82617,30.72099</coordinates></Point>
</Placemark>
<Placemark>
<name>望江县</name>
<Region>
<LatLonAltBox>
<north>30.6285</north><south>29.6285</south><east>117.18321</east><west>116.18321</west></LatLonAltBox>
<Lod><minLodPixels>512</minLodPixels></Lod>
</Region>
<styleUrl>#st:county</styleUrl>
<Point><coordinates>116.68321,30.1285</coordinates></Point>
</Placemark>
<Placemark>
<name>潜山县</name>
<Region>
<LatLonAltBox>
<north>31.13302</north><south>30.13302</south><east>117.07096</east><west>116.07096</west></LatLonAltBox>
<Lod><minLodPixels>512</minLodPixels></Lod>
</Region>
<styleUrl>#st:county</styleUrl>
<Point><coordinates>116.57096,30.63302</coordinates></Point>
</Placemark>
<Placemark>
<name>岳西县</name>
<Region>
<LatLonAltBox>
<north>31.35201</north><south>30.35201</south><east>116.85478</east><west>115.85478</west></LatLonAltBox>
<Lod><minLodPixels>512</minLodPixels></Lod>
</Region>
<styleUrl>#st:county</styleUrl>
<Point><coordinates>116.35478,30.85201</coordinates></Point>
</Placemark>
<Placemark>
<name>霍山县</name>
<Region>
<LatLonAltBox>
<north>31.90574</north><south>30.90574</south><east>116.82975</east><west>115.82975</west></LatLonAltBox>
<Lod><minLodPixels>512</minLodPixels></Lod>
</Region>
<styleUrl>#st:county</styleUrl>
<Point><coordinates>116.32975,31.40574</coordinates></Point>
</Placemark>
<Placemark>
<name>舒城县</name>
<Region>
<LatLonAltBox>
<north>31.9663</north><south>30.9663</south><east>117.4399</east><west>116.4399</west></LatLonAltBox>
<Lod><minLodPixels>512</minLodPixels></Lod>
</Region>
<styleUrl>#st:county</styleUrl>
<Point><coordinates>116.9399,31.4663</coordinates></Point>
</Placemark>
<Placemark>
<name>庐江县</name>
<Region>
<LatLonAltBox>
<north>31.75087</north><south>30.75087</south><east>117.7888</east><west>116.7888</west></LatLonAltBox>
<Lod><minLodPixels>512</minLodPixels></Lod>
</Region>
<styleUrl>#st:county</styleUrl>
<Point><coordinates>117.2888,31.25087</coordinates></Point>
</Placemark>
<Placemark>
<name>肥西县</name>
<Region>
<LatLonAltBox>
<north>32.22341</north><south>31.22341</south><east>117.66297</east><west>116.66297</west></LatLonAltBox>
<Lod><minLodPixels>512</minLodPixels></Lod>
</Region>
<styleUrl>#st:county</styleUrl>
<Point><coordinates>117.16297,31.72341</coordinates></Point>
</Placemark>
<Placemark>
<name>肥东县</name>
<Region>
<LatLonAltBox>
<north>32.38722</north><south>31.38722</south><east>117.96574</east><west>116.96574</west></LatLonAltBox>
<Lod><minLodPixels>512</minLodPixels></Lod>
</Region>
<styleUrl>#st:county</styleUrl>
<Point><coordinates>117.46574,31.88722</coordinates></Point>
</Placemark>
<Placemark>
<name>金寨县</name>
<Region>
<LatLonAltBox>
<north>32.21613</north><south>31.21613</south><east>116.42313</east><west>115.42313</west></LatLonAltBox>
<Lod><minLodPixels>512</minLodPixels></Lod>
</Region>
<styleUrl>#st:county</styleUrl>
<Point><coordinates>115.92313,31.71613</coordinates></Point>
</Placemark>
<Placemark>
<name>霍邱县</name>
<Region>
<LatLonAltBox>
<north>32.84001</north><south>31.84001</south><east>116.76308</east><west>115.76308</west></LatLonAltBox>
<Lod><minLodPixels>512</minLodPixels></Lod>
</Region>
<styleUrl>#st:county</styleUrl>
<Point><coordinates>116.26308,32.34001</coordinates></Point>
</Placemark>
<Placemark>
<name>颍上县</name>
<Region>
<LatLonAltBox>
<north>33.1321</north><south>32.1321</south><east>116.75947</east><west>115.75947</west></LatLonAltBox>
<Lod><minLodPixels>512</minLodPixels></Lod>
</Region>
<styleUrl>#st:county</styleUrl>
<Point><coordinates>116.25947,32.6321</coordinates></Point>
</Placemark>
<Placemark>
<name>阜南县</name>
<Region>
<LatLonAltBox>
<north>33.1378</north><south>32.1378</south><east>116.08042</east><west>115.08042</west></LatLonAltBox>
<Lod><minLodPixels>512</minLodPixels></Lod>
</Region>
<styleUrl>#st:county</styleUrl>
<Point><coordinates>115.58042,32.6378</coordinates></Point>
</Placemark>
<Placemark>
<name>太和县</name>
<Region>
<LatLonAltBox>
<north>33.67094</north><south>32.67094</south><east>116.11608</east><west>115.11608</west></LatLonAltBox>
<Lod><minLodPixels>512</minLodPixels></Lod>
</Region>
<styleUrl>#st:county</styleUrl>
<Point><coordinates>115.61608,33.17094</coordinates></Point>
</Placemark>
<Placemark>
<name>利辛县</name>
<Region>
<LatLonAltBox>
<north>33.64377</north><south>32.64377</south><east>116.70265</east><west>115.70265</west></LatLonAltBox>
<Lod><minLodPixels>512</minLodPixels></Lod>
</Region>
<styleUrl>#st:county</styleUrl>
<Point><coordinates>116.20265,33.14377</coordinates></Point>
</Placemark>
<Placemark>
<name>涡阳县</name>
<Region>
<LatLonAltBox>
<north>34.0107</north><south>33.0107</south><east>116.71158</east><west>115.71158</west></LatLonAltBox>
<Lod><minLodPixels>512</minLodPixels></Lod>
</Region>
<styleUrl>#st:county</styleUrl>
<Point><coordinates>116.21158,33.5107</coordinates></Point>
</Placemark>
<Placemark>
<name>临泉县</name>
<Region>
<LatLonAltBox>
<north>33.56945</north><south>32.56945</south><east>115.75684</east><west>114.75684</west></LatLonAltBox>
<Lod><minLodPixels>512</minLodPixels></Lod>
</Region>
<styleUrl>#st:county</styleUrl>
<Point><coordinates>115.25684,33.06945</coordinates></Point>
</Placemark>
<Placemark>
<name>濉溪县</name>
<Region>
<LatLonAltBox>
<north>34.416</north><south>33.416</south><east>117.26253</east><west>116.26253</west></LatLonAltBox>
<Lod><minLodPixels>512</minLodPixels></Lod>
</Region>
<styleUrl>#st:county</styleUrl>
<Point><coordinates>116.76253,33.916</coordinates></Point>
</Placemark>
<Placemark>
<name>萧县</name>
<Region>
<LatLonAltBox>
<north>34.68945</north><south>33.68945</south><east>117.4402</east><west>116.4402</west></LatLonAltBox>
<Lod><minLodPixels>512</minLodPixels></Lod>
</Region>
<styleUrl>#st:county</styleUrl>
<Point><coordinates>116.9402,34.18945</coordinates></Point>
</Placemark>
<Placemark>
<name>砀山县</name>
<Region>
<LatLonAltBox>
<north>34.92467</north><south>33.92467</south><east>116.84818</east><west>115.84818</west></LatLonAltBox>
<Lod><minLodPixels>512</minLodPixels></Lod>
</Region>
<styleUrl>#st:county</styleUrl>
<Point><coordinates>116.34818,34.42467</coordinates></Point>
</Placemark>
<Placemark>
<name>固镇县</name>
<Region>
<LatLonAltBox>
<north>33.81964</north><south>32.81964</south><east>117.81</east><west>116.81</west></LatLonAltBox>
<Lod><minLodPixels>512</minLodPixels></Lod>
</Region>
<styleUrl>#st:county</styleUrl>
<Point><coordinates>117.31,33.31964</coordinates></Point>
</Placemark>
<Placemark>
<name>灵璧县</name>
<Region>
<LatLonAltBox>
<north>34.04508</north><south>33.04508</south><east>118.05268</east><west>117.05268</west></LatLonAltBox>
<Lod><minLodPixels>512</minLodPixels></Lod>
</Region>
<styleUrl>#st:county</styleUrl>
<Point><coordinates>117.55268,33.54508</coordinates></Point>
</Placemark>
<Placemark>
<name>怀远县</name>
<Region>
<LatLonAltBox>
<north>33.46259</north><south>32.46259</south><east>117.68949</east><west>116.68949</west></LatLonAltBox>
<Lod><minLodPixels>512</minLodPixels></Lod>
</Region>
<styleUrl>#st:county</styleUrl>
<Point><coordinates>117.18949,32.96259</coordinates></Point>
</Placemark>
<Placemark>
<name>蒙城县</name>
<Region>
<LatLonAltBox>
<north>33.76664</north><south>32.76664</south><east>117.05962</east><west>116.05962</west></LatLonAltBox>
<Lod><minLodPixels>512</minLodPixels></Lod>
</Region>
<styleUrl>#st:county</styleUrl>
<Point><coordinates>116.55962,33.26664</coordinates></Point>
</Placemark>
<Placemark>
<name>凤台县</name>
<Region>
<LatLonAltBox>
<north>33.20407</north><south>32.20407</south><east>117.22476</east><west>116.22476</west></LatLonAltBox>
<Lod><minLodPixels>512</minLodPixels></Lod>
</Region>
<styleUrl>#st:county</styleUrl>
<Point><coordinates>116.72476,32.70407</coordinates></Point>
</Placemark>
<Placemark>
<name>寿县</name>
<Region>
<LatLonAltBox>
<north>33.07871</north><south>32.07871</south><east>117.27948</east><west>116.27948</west></LatLonAltBox>
<Lod><minLodPixels>512</minLodPixels></Lod>
</Region>
<styleUrl>#st:county</styleUrl>
<Point><coordinates>116.77948,32.57871</coordinates></Point>
</Placemark>
<Placemark>
<name>凤阳县</name>
<Region>
<LatLonAltBox>
<north>33.36719</north><south>32.36719</south><east>118.05916</east><west>117.05916</west></LatLonAltBox>
<Lod><minLodPixels>512</minLodPixels></Lod>
</Region>
<styleUrl>#st:county</styleUrl>
<Point><coordinates>117.55916,32.86719</coordinates></Point>
</Placemark>
<Placemark>
<name>长丰县</name>
<Region>
<LatLonAltBox>
<north>32.98163</north><south>31.98163</south><east>117.65997</east><west>116.65997</west></LatLonAltBox>
<Lod><minLodPixels>512</minLodPixels></Lod>
</Region>
<styleUrl>#st:county</styleUrl>
<Point><coordinates>117.15997,32.48163</coordinates></Point>
</Placemark>
<Placemark>
<name>定远县</name>
<Region>
<LatLonAltBox>
<north>33.02713</north><south>32.02713</south><east>118.17499</east><west>117.17499</west></LatLonAltBox>
<Lod><minLodPixels>512</minLodPixels></Lod>
</Region>
<styleUrl>#st:county</styleUrl>
<Point><coordinates>117.67499,32.52713</coordinates></Point>
</Placemark>
<Placemark>
<name>来安县</name>
<Region>
<LatLonAltBox>
<north>32.9537</north><south>31.9537</south><east>118.92897</east><west>117.92897</west></LatLonAltBox>
<Lod><minLodPixels>512</minLodPixels></Lod>
</Region>
<styleUrl>#st:county</styleUrl>
<Point><coordinates>118.42897,32.4537</coordinates></Point>
</Placemark>
<Placemark>
<name>五河县</name>
<Region>
<LatLonAltBox>
<north>33.64652</north><south>32.64652</south><east>118.38618</east><west>117.38618</west></LatLonAltBox>
<Lod><minLodPixels>512</minLodPixels></Lod>
</Region>
<styleUrl>#st:county</styleUrl>
<Point><coordinates>117.88618,33.14652</coordinates></Point>
</Placemark>
<Placemark>
<name>泗县</name>
<Region>
<LatLonAltBox>
<north>33.98053</north><south>32.98053</south><east>118.38257</east><west>117.38257</west></LatLonAltBox>
<Lod><minLodPixels>512</minLodPixels></Lod>
</Region>
<styleUrl>#st:county</styleUrl>
<Point><coordinates>117.88257,33.48053</coordinates></Point>
</Placemark>
<Placemark>
<name>广德县</name>
<Region>
<LatLonAltBox>
<north>31.39587</north><south>30.39587</south><east>119.91246</east><west>118.91246</west></LatLonAltBox>
<Lod><minLodPixels>512</minLodPixels></Lod>
</Region>
<styleUrl>#st:county</styleUrl>
<Point><coordinates>119.41246,30.89587</coordinates></Point>
</Placemark>
<Placemark>
<name>郎溪县</name>
<Region>
<LatLonAltBox>
<north>31.62809</north><south>30.62809</south><east>119.67407</east><west>118.67407</west></LatLonAltBox>
<Lod><minLodPixels>512</minLodPixels></Lod>
</Region>
<styleUrl>#st:county</styleUrl>
<Point><coordinates>119.17407,31.12809</coordinates></Point>
</Placemark>
<Placemark>
<name>当涂县</name>
<Region>
<LatLonAltBox>
<north>32.05501</north><south>31.05501</south><east>118.98425</east><west>117.98425</west></LatLonAltBox>
<Lod><minLodPixels>512</minLodPixels></Lod>
</Region>
<styleUrl>#st:county</styleUrl>
<Point><coordinates>118.48425,31.55501</coordinates></Point>
</Placemark>
<Placemark>
<name>和县</name>
<Region>
<LatLonAltBox>
<north>32.21637</north><south>31.21637</south><east>118.86082</east><west>117.86082</west></LatLonAltBox>
<Lod><minLodPixels>512</minLodPixels></Lod>
</Region>
<styleUrl>#st:county</styleUrl>
<Point><coordinates>118.36082,31.71637</coordinates></Point>
</Placemark>
<Placemark>
<name>全椒县</name>
<Region>
<LatLonAltBox>
<north>32.59574</north><south>31.59574</south><east>118.76117</east><west>117.76117</west></LatLonAltBox>
<Lod><minLodPixels>512</minLodPixels></Lod>
</Region>
<styleUrl>#st:county</styleUrl>
<Point><coordinates>118.26117,32.09574</coordinates></Point>
</Placemark>
<Placemark>
<name>含山县</name>
<Region>
<LatLonAltBox>
<north>32.22036</north><south>31.22036</south><east>118.60479</east><west>117.60479</west></LatLonAltBox>
<Lod><minLodPixels>512</minLodPixels></Lod>
</Region>
<styleUrl>#st:county</styleUrl>
<Point><coordinates>118.10479,31.72036</coordinates></Point>
</Placemark>
<Placemark>
<name>无为县</name>
<Region>
<LatLonAltBox>
<north>31.80185</north><south>30.80185</south><east>118.41386</east><west>117.41386</west></LatLonAltBox>
<Lod><minLodPixels>512</minLodPixels></Lod>
</Region>
<styleUrl>#st:county</styleUrl>
<Point><coordinates>117.91386,31.30185</coordinates></Point>
</Placemark>
<Placemark>
<name>铜陵县</name>
<Region>
<LatLonAltBox>
<north>31.45595</north><south>30.45595</south><east>118.28585</east><west>117.28585</west></LatLonAltBox>
<Lod><minLodPixels>512</minLodPixels></Lod>
</Region>
<styleUrl>#st:county</styleUrl>
<Point><coordinates>117.78585,30.95595</coordinates></Point>
</Placemark>
<Placemark>
<name>繁昌县</name>
<Region>
<LatLonAltBox>
<north>31.58539</north><south>30.58539</south><east>118.69461</east><west>117.69461</west></LatLonAltBox>
<Lod><minLodPixels>512</minLodPixels></Lod>
</Region>
<styleUrl>#st:county</styleUrl>
<Point><coordinates>118.19461,31.08539</coordinates></Point>
</Placemark>
<Placemark>
<name>南陵县</name>
<Region>
<LatLonAltBox>
<north>31.42192</north><south>30.42192</south><east>118.83164</east><west>117.83164</west></LatLonAltBox>
<Lod><minLodPixels>512</minLodPixels></Lod>
</Region>
<styleUrl>#st:county</styleUrl>
<Point><coordinates>118.33164,30.92192</coordinates></Point>
</Placemark>
<Placemark>
<name>芜湖县</name>
<Region>
<LatLonAltBox>
<north>31.65023</north><south>30.65023</south><east>119.0621</east><west>118.0621</west></LatLonAltBox>
<Lod><minLodPixels>512</minLodPixels></Lod>
</Region>
<styleUrl>#st:county</styleUrl>
<Point><coordinates>118.5621,31.15023</coordinates></Point>
</Placemark>
<Placemark>
<name>旌德县</name>
<Region>
<LatLonAltBox>
<north>30.79162</north><south>29.79162</south><east>119.0382</east><west>118.0382</west></LatLonAltBox>
<Lod><minLodPixels>512</minLodPixels></Lod>
</Region>
<styleUrl>#st:county</styleUrl>
<Point><coordinates>118.5382,30.29162</coordinates></Point>
</Placemark>
<Placemark>
<name>泾县</name>
<Region>
<LatLonAltBox>
<north>31.19835</north><south>30.19835</south><east>118.89846</east><west>117.89846</west></LatLonAltBox>
<Lod><minLodPixels>512</minLodPixels></Lod>
</Region>
<styleUrl>#st:county</styleUrl>
<Point><coordinates>118.39846,30.69835</coordinates></Point>
</Placemark>
<Placemark>
<name>青阳县</name>
<Region>
<LatLonAltBox>
<north>31.14267</north><south>30.14267</south><east>118.35391</east><west>117.35391</west></LatLonAltBox>
<Lod><minLodPixels>512</minLodPixels></Lod>
</Region>
<styleUrl>#st:county</styleUrl>
<Point><coordinates>117.85391,30.64267</coordinates></Point>
</Placemark>
<Placemark>
<name>休宁县</name>
<Region>
<LatLonAltBox>
<north>30.28857</north><south>29.28857</south><east>118.67624</east><west>117.67624</west></LatLonAltBox>
<Lod><minLodPixels>512</minLodPixels></Lod>
</Region>
<styleUrl>#st:county</styleUrl>
<Point><coordinates>118.17624,29.78857</coordinates></Point>
</Placemark>
<Placemark>
<name>祁门县</name>
<Region>
<LatLonAltBox>
<north>30.35981</north><south>29.35981</south><east>118.21323</east><west>117.21323</west></LatLonAltBox>
<Lod><minLodPixels>512</minLodPixels></Lod>
</Region>
<styleUrl>#st:county</styleUrl>
<Point><coordinates>117.71323,29.85981</coordinates></Point>
</Placemark>
<Placemark>
<name>黟县</name>
<Region>
<LatLonAltBox>
<north>30.4286</north><south>29.4286</south><east>118.4363</east><west>117.4363</west></LatLonAltBox>
<Lod><minLodPixels>512</minLodPixels></Lod>
</Region>
<styleUrl>#st:county</styleUrl>
<Point><coordinates>117.9363,29.9286</coordinates></Point>
</Placemark>
<Placemark>
<name>歙县</name>
<Region>
<LatLonAltBox>
<north>30.36985</north><south>29.36985</south><east>118.93164</east><west>117.93164</west></LatLonAltBox>
<Lod><minLodPixels>512</minLodPixels></Lod>
</Region>
<styleUrl>#st:county</styleUrl>
<Point><coordinates>118.43164,29.86985</coordinates></Point>
</Placemark>
<Placemark>
<name>绩溪县</name>
<Region>
<LatLonAltBox>
<north>30.5734</north><south>29.5734</south><east>119.09291</east><west>118.09291</west></LatLonAltBox>
<Lod><minLodPixels>512</minLodPixels></Lod>
</Region>
<styleUrl>#st:county</styleUrl>
<Point><coordinates>118.59291,30.0734</coordinates></Point>
</Placemark>
</Folder>
</Document>
</kml>